[ 
                 {
    "nombre": "Las Garzas",
    "departamento": "Rocha",
    "seccion": 0,
    "descripcion": "Lugar muy concurrido, ideal para pesca costera.",
    "acceso": "Fácil",
    "profundidad": 2,
    "enganche": 2,
    "imagenes": ["Fotos/rocha/lasgarzas.webp"],
    "especies": ["Pejerrey", "Corvina", "Brótola"],
    "ubicacion": {
      "lat": -34.729899,
      "lng": -54.400800
    }
  },
                {
    "nombre": "La Paloma",
    "departamento": "Rocha",
    "seccion": 1,
    "descripcion": "Lugar muy concurrido, ideal para pesca costera.",
    "acceso": "Fácil",
    "profundidad": 2,
    "enganche": 2,
    "imagenes": ["Fotos/rocha/escolleralapaloma.webp"],
    "especies": ["Pejerrey", "Corvina", "Brótola"],
    "ubicacion": {
      "lat": -34.651348,
      "lng": -54.141587
    }
  },
                {
    "nombre": "La Pedrera",
    "departamento": "Rocha",
    "seccion": 2,
    "descripcion": "Lugar muy concurrido, ideal para pesca costera.",
    "acceso": "Fácil",
    "profundidad": 2,
    "enganche": 3,
    "imagenes": ["Fotos/rocha/lapedrera.webp"],
    "especies": ["Pejerrey", "Corvina", "Brótola"],
    "ubicacion": {
      "lat": -34.593673,
      "lng": -54.121311
    }
  },
                {
    "nombre": "La Esmeralda",
    "departamento": "Rocha",
    "seccion": 3,
    "descripcion": "Lugar muy concurrido, ideal para pesca costera.",
    "acceso": "Fácil",
    "profundidad": 2,
    "enganche": 1,
    "imagenes": ["Fotos/rocha/laesmeralda.webp"],
    "especies": ["Pejerrey", "Corvina", "Brótola"],
    "ubicacion": {
      "lat": -34.169003,
      "lng": -53.683653
    }
  },
                {
    "nombre": "Punta del Diablo",
    "departamento": "Rocha",
    "seccion": 4,
    "descripcion": "Lugar muy concurrido, ideal para pesca costera.",
    "acceso": "Fácil",
    "profundidad": 2,
    "enganche": 3,
    "imagenes": ["Fotos/rocha/puntadeldiablo.webp"],
    "especies": ["Pejerrey", "Corvina", "Brótola"],
    "ubicacion": {
      "lat": -34.044613,
      "lng": -53.534582
    }
  },
                {
    "nombre": "La Coronilla",
    "departamento": "Rocha",
    "seccion": 5,
    "descripcion": "Lugar muy concurrido, ideal para pesca costera.",
    "acceso": "Fácil",
    "profundidad": 2,
    "enganche": 1,
    "imagenes": ["Fotos/rocha/lacoronilla.webp"],
    "especies": ["Pejerrey", "Corvina", "Brótola"],
    "ubicacion": {
      "lat": -33.897275,
      "lng": -53.508131
    }
  }
]
